,City,Cloudiness,Country,Date,Humidity,Lat,Lng,Max Temp,Wind Speed
0,Grand-Santi,59,GF,1574377730,94,4.27,-54.38,23.42,1.01
1,Tres Arroyos,66,AR,1574378283,85,-38.38,-60.28,12.97,5.2
2,Antalaha,0,MG,1574378283,82,-14.9,50.28,26.77,4.47
3,Baykit,96,RU,1574378283,97,61.68,96.39,-24.94,0.99
4,Bluff,40,AU,1574378283,45,-23.58,149.07,26.55,4.34
5,Butaritari,63,KI,1574378283,78,3.07,172.79,28.78,6.97
6,Chokurdakh,100,RU,1574377703,98,70.62,147.9,-27.41,3.42
7,Hasaki,75,JP,1574378283,93,35.73,140.83,8.0,4.6
8,Busselton,99,AU,1574378283,53,-33.64,115.35,17.78,2.44
9,Kapaa,20,US,1574378265,74,22.08,-159.32,29.0,7.2
10,Yangambi,100,CD,1574378283,98,0.77,24.47,21.53,0.62
11,Tiksi,90,RU,1574378283,90,71.64,128.87,-27.48,2.01
12,Saint George,75,GR,1574377713,100,39.45,22.34,14.0,1.6
13,San Patricio,93,PY,1574377730,57,-26.98,-56.83,27.61,2.24
14,Mataura,79,NZ,1574378283,50,-46.19,168.86,21.86,8.94
15,Kununurra,44,AU,1574378283,62,-15.77,128.74,30.0,3.6
16,Bredasdorp,0,ZA,1574378283,87,-34.53,20.04,14.44,0.5
17,Okmulgee,90,US,1574378283,100,35.62,-95.96,9.44,6.2
18,Makakilo City,75,US,1574377699,88,21.35,-158.09,28.0,3.6
19,Afsin,3,TR,1574378284,23,38.25,36.91,0.31,1.43
20,Rikitea,100,PF,1574378284,76,-23.12,-134.97,25.17,3.55
21,Vaini,0,IN,1574378284,94,15.34,74.49,18.61,3.46
22,Hermanus,0,ZA,1574378284,88,-34.42,19.24,15.0,3.81
23,Hirara,75,JP,1574377747,73,24.8,125.28,25.0,8.7
24,Makurdi,96,NG,1574378284,76,7.73,8.54,26.03,3.74
25,Kinablangan,51,PH,1574378284,67,7.69,126.55,27.24,0.33
26,Govindgarh,82,IN,1574378284,44,27.5,77.0,16.79,1.21
27,Fortuna,20,US,1574378284,62,40.6,-124.16,16.0,4.1
28,Codrington,1,AU,1574378284,57,-28.95,153.24,26.0,2.6
29,Hithadhoo,1,MV,1574378284,77,-0.6,73.08,27.79,4.81
30,Husavik,22,CA,1574378284,89,50.56,-96.99,-10.0,2.86
31,Poum,100,MK,1574377746,79,41.28,20.71,5.03,0.71
32,Touros,20,BR,1574377709,74,-5.2,-35.46,26.0,4.1
33,Arraial do Cabo,86,BR,1574377989,88,-22.97,-42.02,23.0,5.7
34,Hailey,5,US,1574377563,33,43.52,-114.32,7.0,2.1
35,Albany,90,US,1574378284,74,42.65,-73.75,3.0,1.49
36,Lagoa,20,PT,1574377721,100,37.14,-8.45,13.89,1.0
37,Pevek,47,RU,1574377714,98,69.7,170.27,-23.46,1.07
38,New Norfolk,40,AU,1574378285,36,-42.78,147.06,20.56,5.1
39,Ushuaia,40,AR,1574378285,37,-54.81,-68.31,12.0,5.1
40,Nome,75,US,1574377696,73,30.04,-94.42,25.0,4.1
41,Kitab,90,UZ,1574378285,96,39.12,66.88,1.0,2.1
42,Along,0,IN,1574378285,88,28.17,94.8,12.25,1.77
43,Sao Filipe,29,CV,1574377753,77,14.9,-24.5,22.71,8.31
44,Saint-Philippe,90,CA,1574377699,96,45.36,-73.48,2.22,2.6
45,Punta Arenas,92,CL,1574378285,53,-53.16,-70.91,11.0,10.8
46,Vardo,1,US,1574378285,57,39.62,-77.74,10.0,2.1
47,Jamestown,3,AU,1574378285,36,-33.21,138.6,18.27,3.44
48,Ramgarh,69,IN,1574378285,49,27.26,75.18,18.19,3.39
49,Caravelas,57,BR,1574378285,94,-17.73,-39.27,22.19,2.07
50,Klaksvik,100,FO,1574377690,93,62.23,-6.59,7.0,7.7
51,Atuona,16,PF,1574378286,67,-9.8,-139.03,27.02,6.1
52,College,90,US,1574378286,84,64.86,-147.8,-2.22,1.88
53,Ponta Delgada,75,PT,1574378286,88,37.73,-25.67,20.0,11.3
54,Mardin,0,TR,1574378286,48,37.32,40.72,7.0,4.1
55,Vanimo,100,PG,1574378286,78,-2.67,141.3,28.23,4.72
56,Mahebourg,20,MU,1574378286,94,-20.41,57.7,24.44,1.5
57,Cedar City,90,US,1574378088,75,37.68,-113.06,5.0,2.1
58,Cape Town,0,ZA,1574378204,72,-33.93,18.42,17.22,5.7
59,Port Hardy,75,CA,1574377676,76,50.7,-127.42,9.0,3.1
60,Upernavik,23,GL,1574377689,78,72.79,-56.15,-13.06,3.83
61,Petauke,96,ZM,1574378286,80,-14.25,31.33,22.23,1.77
62,Benguela,100,AO,1574378286,76,-12.58,13.4,23.77,2.73
63,Bambous Virieux,20,MU,1574378286,94,-20.34,57.76,24.44,1.5
64,Vila Velha,63,BR,1574377738,74,-3.71,-38.6,30.0,5.1
65,Cidreira,0,BR,1574378286,91,-30.17,-50.22,22.2,10.09
66,Rochefort,57,BE,1574378286,81,50.16,5.22,6.0,4.6
67,Hilo,90,US,1574378161,74,19.71,-155.08,26.0,3.1
68,Ust-Kuyga,88,RU,1574377695,98,70.0,135.55,-31.77,1.73
69,Saint Anthony,1,US,1574378287,42,43.97,-111.68,8.0,1.55
70,Ponta do Sol,79,BR,1574378287,88,-20.63,-46.0,19.97,3.02
71,Kodiak,90,US,1574378287,74,39.95,-94.76,3.33,7.2
72,Port Augusta,6,AU,1574378287,67,-32.49,137.76,17.78,6.2
73,Turan,80,RU,1574378287,88,52.15,93.92,-23.12,0.72
74,Lucapa,100,AO,1574378287,96,-8.42,20.74,19.04,2.51
75,Zlobin,40,HR,1574378287,87,45.29,14.65,9.0,1.5
76,Hobart,40,AU,1574378280,36,-42.88,147.33,20.56,5.1
77,Mayor Pablo Lagerenza,29,PY,1574378287,44,-19.93,-60.77,30.59,3.28
78,Lyubim,30,RU,1574378287,53,58.36,40.69,-7.26,2.38
79,Port Alfred,63,ZA,1574378287,87,-33.59,26.89,16.11,1.34
80,Mapiripan,18,CO,1574378287,81,2.89,-72.13,25.08,1.45
81,Tilichiki,60,RU,1574378287,88,60.47,166.1,-18.81,3.44
82,Esperance,100,AU,1574377709,76,-33.86,121.89,13.0,3.1
83,Barrow,63,AR,1574378287,92,-38.31,-60.23,13.88,5.51
84,Carutapera,100,BR,1574378287,79,-1.2,-46.02,27.64,7.31
85,La Ronge,75,CA,1574377401,78,55.1,-105.3,0.0,3.1
86,Avarua,100,CK,1574378074,83,-21.21,-159.78,27.0,8.2
87,Road Town,20,VG,1574378287,78,18.42,-64.62,28.0,4.1
88,Souillac,15,FR,1574377696,93,45.6,-0.6,7.0,2.1
89,Tasiilaq,100,GL,1574377700,92,65.61,-37.64,-1.0,2.6
90,Tuktoyaktuk,90,CA,1574378288,92,69.44,-133.03,-13.0,5.7
91,Masindi,66,UG,1574378288,95,1.69,31.72,17.61,0.6
92,El Limon,100,VE,1574377715,84,10.3,-67.63,23.14,1.75
93,Lorengau,100,PG,1574378288,76,-2.02,147.27,28.86,6.47
94,Nalut,39,LY,1574378288,35,31.86,10.98,11.7,0.99
95,Xam Nua,34,LA,1574378288,96,20.42,104.04,12.25,0.85
96,Magadan,100,RU,1574378288,92,59.56,150.8,-7.24,3.14
97,Puerto Ayora,24,EC,1574378288,57,-0.74,-90.35,25.0,8.7
98,Iqaluit,90,CA,1574377722,79,63.75,-68.52,-5.0,6.7
99,Hamilton,90,CA,1574377606,93,43.26,-79.87,8.89,5.7
100,Huarmey,71,PE,1574377743,83,-10.07,-78.15,17.17,1.53
101,Kloulklubed,75,PW,1574378288,79,7.04,134.26,29.0,2.6
102,Nanortalik,0,GL,1574377746,64,60.14,-45.24,0.62,1.9
103,Breytovo,72,RU,1574378288,55,58.3,37.86,-2.92,7.02
104,Geraldton,90,CA,1574378288,92,49.72,-86.95,-7.0,5.1
105,Tucuman,85,PE,1574378288,73,-17.17,-70.89,12.68,1.21
106,Yulara,0,AU,1574377752,27,-25.24,130.99,23.0,6.7
107,Port Elizabeth,1,US,1574378288,65,39.31,-74.98,9.44,2.37
108,Minna,99,NG,1574378288,88,9.62,6.55,24.0,3.6
109,Zherdevka,0,RU,1574378289,51,51.84,41.47,-8.51,2.33
110,Hualmay,82,PE,1574378289,88,-11.1,-77.61,16.73,1.57
111,Kudahuvadhoo,1,MV,1574378289,76,2.67,72.89,27.85,3.42
112,Tutoia,100,BR,1574378289,85,-2.76,-42.27,25.06,1.59
113,Kruisfontein,26,ZA,1574377706,92,-34.0,24.73,11.66,2.53
114,Castro,73,CL,1574378289,66,-42.48,-73.76,12.0,4.1
115,Maceio,54,BR,1574378086,83,-9.67,-35.74,24.0,2.1
116,Zhezkazgan,0,KZ,1574378289,85,47.8,67.71,-17.56,2.78
117,Gritsovskiy,0,RU,1574378289,44,54.14,38.16,-7.15,3.49
118,Yar-Sale,95,RU,1574378289,94,66.83,70.83,-14.82,2.11
119,Escarcega,56,MX,1574378289,64,18.61,-90.75,25.66,1.12
120,Glenwood Springs,20,US,1574378289,65,39.55,-107.33,8.0,2.1
121,Qaanaaq,100,GL,1574378289,88,77.48,-69.36,-16.06,3.38
122,Ribeira Grande,100,PT,1574378289,93,38.52,-28.7,18.46,8.61
123,ChengDe,23,CN,1574378289,77,40.97,117.93,-1.1,0.71
124,Salalah,75,OM,1574377732,60,17.01,54.1,24.0,8.2
125,Sidney,90,US,1574378054,69,47.72,-104.16,1.0,3.1
126,Foam Lake,23,CA,1574378114,84,51.65,-103.53,-4.06,5.9
127,Mirnyy,0,RU,1574378289,47,56.57,36.46,-5.72,2.53
128,Pacific Grove,1,US,1574378289,67,36.62,-121.92,18.33,5.1
129,Portland,1,US,1574377730,64,43.66,-70.25,4.0,4.04
130,Comodoro Rivadavia,0,AR,1574377750,51,-45.87,-67.48,18.0,7.7
131,Bridlington,100,GB,1574378290,87,54.08,-0.19,7.22,2.6
132,Mitsamiouli,6,KM,1574378290,82,-11.38,43.28,27.43,2.16
133,Toowoomba,40,AU,1574378290,60,-27.56,151.95,25.0,4.1
134,Thompson,90,CA,1574378290,78,55.74,-97.86,-11.0,3.1
135,Nouakchott,67,MR,1574378290,77,18.08,-15.98,20.0,5.7
136,Narsaq,0,GL,1574377706,58,60.91,-46.05,-4.0,2.36
137,Kaitangata,100,NZ,1574378290,54,-46.28,169.85,18.71,9.47
138,Teknaf,0,BD,1574378290,96,20.86,92.31,15.8,0.75
139,Half Moon Bay,1,US,1574378290,76,37.46,-122.43,19.0,2.6
140,Padang,94,ID,1574377735,94,-0.92,100.36,20.58,1.36
141,Katherine,57,AU,1574378290,55,-14.47,132.26,31.0,4.6
142,Beloha,99,MG,1574378290,74,-25.17,45.06,24.82,1.05
143,Ust-Nera,100,RU,1574378290,100,64.57,143.24,-37.41,1.1
144,Port Dickson,20,MY,1574378290,83,2.52,101.79,26.0,1.5
145,Bethel,75,US,1574378157,100,60.79,-161.76,-1.0,4.1
146,Vanavara,91,RU,1574377716,98,60.35,102.28,-25.03,2.18
147,Maniitsoq,89,GL,1574378290,46,65.42,-52.9,-6.23,1.42
148,Killarney,4,AU,1574378290,41,-28.34,152.3,21.11,0.89
149,Wagar,91,US,1574378290,89,31.44,-87.99,16.67,1.45
150,Ancud,34,CL,1574377703,54,-41.87,-73.83,14.0,4.6
151,Ulladulla,75,AU,1574378290,52,-35.36,150.48,21.11,6.2
152,Waipawa,70,NZ,1574377720,49,-39.94,176.59,22.22,3.13
153,Port Hedland,84,AU,1574377719,83,-20.31,118.58,26.0,4.1
154,Kavieng,100,PG,1574378291,76,-2.57,150.8,28.25,7.58
155,Stephenville,75,CA,1574378179,74,48.55,-58.59,2.0,5.7
156,Bireun,89,ID,1574378291,91,5.2,96.7,19.85,0.72
157,Oistins,20,BB,1574378291,78,13.07,-59.53,27.0,3.1
158,Barcelos,100,BR,1574378291,92,-0.97,-62.93,24.37,0.51
159,Prince Rupert,90,CA,1574378027,81,54.32,-130.32,8.0,4.1
160,Ekibastuz,31,KZ,1574378291,87,51.72,75.32,-19.64,6.8
161,Burley,90,US,1574378292,41,42.54,-113.79,7.0,1.51
162,Dikson,100,RU,1574378292,94,73.51,80.55,-7.25,6.75
163,Diamantino,80,BR,1574377717,77,-14.4,-56.44,23.27,1.44
164,Ketchikan,90,US,1574378292,87,55.34,-131.65,7.0,9.8
165,Belmonte,99,PT,1574378292,96,40.36,-7.35,10.0,2.65
166,Provideniya,40,RU,1574378292,62,64.42,-173.23,-6.0,9.0
167,Shirokiy,0,RU,1574378292,58,53.87,39.17,-12.78,2.42
168,Golden,90,US,1574378292,92,39.76,-105.22,0.56,1.5
169,Clyde River,90,CA,1574377723,72,70.47,-68.59,-10.0,6.7
170,Mar del Plata,12,AR,1574378292,30,-46.43,-67.52,16.2,5.64
171,Cabo San Lucas,20,MX,1574377554,61,22.89,-109.91,27.0,6.7
172,Leningradskiy,100,RU,1574378293,94,69.38,178.42,-12.63,8.04
173,Havoysund,75,NO,1574377722,86,71.0,24.66,4.0,10.8
174,Riyadh,0,SA,1574378222,70,24.63,46.72,8.0,1.41
175,Denpasar,75,ID,1574378233,83,-8.65,115.22,27.0,1.5
176,Atar,0,MR,1574377704,25,20.52,-13.05,20.13,2.69
177,Alindao,74,CF,1574378293,65,5.04,21.21,21.77,1.08
178,Whitehorse,20,CA,1574378046,64,60.72,-135.06,4.0,7.2
179,Olinda,75,AU,1574378293,58,-37.84,145.39,17.78,4.6
180,Salani,100,IN,1574378293,44,29.96,79.71,9.56,1.99
181,Udachnyy,75,RU,1574378293,83,66.42,112.4,-23.0,2.0
182,Carupano,100,VE,1574378293,97,10.67,-63.26,23.11,0.74
183,Fiumicino,14,IT,1574378293,93,41.77,12.23,11.11,1.5
184,Maldonado,40,UY,1574378293,83,-34.91,-54.96,24.0,4.6
185,Yellowknife,90,CA,1574378010,100,62.45,-114.38,-5.0,2.6
186,Pontianak,100,ID,1574378293,97,-0.02,109.34,23.38,0.79
187,Rio Pardo,87,BR,1574378293,78,-29.98,-52.37,24.2,1.59
188,Quatre Cocos,20,MU,1574378293,94,-20.21,57.76,24.44,1.5
189,Kargasok,93,RU,1574378293,93,59.06,80.87,-13.63,4.51
190,Moerai,20,PF,1574378294,86,-22.43,-151.33,24.57,8.49
191,Katipunan,12,PH,1574378294,76,8.51,123.28,27.6,0.33
192,Shimoda,75,JP,1574378294,87,34.7,138.93,13.0,8.7
193,Faanui,41,PF,1574378294,70,-16.48,-151.75,27.58,3.43
194,Vao,94,EE,1574377707,80,59.1,26.19,0.15,3.98
195,Sitka,77,US,1574377710,66,37.17,-99.65,5.0,2.24
196,Akot,6,IN,1574378294,68,21.09,77.05,19.47,2.7
197,Sola,100,TZ,1574377695,82,-3.17,33.8,20.54,1.73
198,San Cristobal,43,HN,1574378294,83,14.68,-86.92,20.01,1.52
199,Krumovgrad,100,BG,1574378294,93,41.47,25.65,13.89,3.62
200,Gorontalo,100,ID,1574378294,64,0.54,123.06,29.4,0.68
201,Shingu,96,JP,1574377734,87,33.72,135.99,16.4,10.84
202,Houston,75,US,1574378258,73,29.76,-95.37,25.0,2.1
203,Itarema,27,BR,1574378294,72,-2.92,-39.92,25.4,4.54
204,Estrela,89,BR,1574378294,79,-29.5,-51.96,26.67,0.34
205,Puerto Cabezas,40,NI,1574378295,83,14.04,-83.39,28.0,3.1
206,Impfondo,93,CD,1574378295,98,1.62,18.06,21.84,1.53
207,Sioux Lookout,75,CA,1574378295,78,50.1,-91.92,-9.0,3.1
208,Georgetown,40,GY,1574377700,79,6.8,-58.16,29.0,4.1
209,Emerald,10,AU,1574378295,53,-23.53,148.16,26.11,5.7
210,Palana,98,RU,1574378295,91,59.08,159.95,-7.45,1.55
211,San Luis,87,AR,1574378295,79,-33.3,-66.34,22.53,7.63
212,Cherskiy,100,RU,1574378295,99,68.75,161.3,-31.57,1.01
213,Linxia,77,CN,1574378295,29,35.6,103.21,2.17,2.5
214,Diffa,100,NE,1574377744,17,13.32,12.61,27.26,2.99
215,Tual,97,ID,1574377718,71,-5.67,132.75,28.21,1.08
216,Cairns,75,AU,1574377555,57,-16.92,145.77,28.89,2.6
217,Khatanga,100,RU,1574378295,95,71.98,102.47,-17.18,5.39
218,Kincardine,100,CA,1574378295,86,44.18,-81.63,7.78,1.34
219,Katsuura,75,JP,1574377710,81,33.93,134.5,8.0,3.6
220,Longyearbyen,20,NO,1574377696,85,78.22,15.63,-11.0,3.6
221,Victoria,75,BN,1574378296,88,5.28,115.24,26.0,2.09
222,Tiznit,51,MA,1574378296,80,29.7,-9.73,11.47,0.55
223,Alice Springs,96,AU,1574378296,29,-23.7,133.88,24.0,6.2
224,Necochea,54,AR,1574378296,93,-38.55,-58.74,17.22,1.83
225,Gornopravdinsk,63,RU,1574378296,98,60.06,69.92,-17.07,1.83
226,Sohag,34,EG,1574378296,36,26.55,31.7,16.0,3.6
227,Namibe,52,AO,1574377733,79,-15.19,12.15,21.79,6.44
228,Uralets,100,RU,1574378296,93,57.66,59.65,-11.28,4.4
229,Camalu,31,MX,1574378296,60,30.85,-116.07,15.36,3.08
230,Lebu,1,ET,1574378296,90,8.96,38.73,10.26,0.83
231,Otuzco,20,PE,1574378296,82,-7.9,-78.57,19.0,3.1
232,Coihaique,75,CL,1574377732,47,-45.58,-72.07,13.0,2.6
233,Shakiso,100,ET,1574378296,98,5.77,38.9,15.36,0.65
234,Tyrma,100,RU,1574378296,84,50.04,132.17,-14.7,0.96
235,Kawambwa,39,ZM,1574378296,79,-9.8,29.07,19.75,0.7
236,Beringovskiy,0,RU,1574377720,84,63.05,179.32,-12.18,11.03
237,Rio Gallegos,40,AR,1574377555,59,-51.62,-69.22,16.0,6.2
238,Gladstone,90,AU,1574378296,50,-23.84,151.26,30.0,5.1
239,Tautira,40,PF,1574378297,70,-17.73,-149.15,30.0,3.6
240,Tezu,0,IN,1574378297,64,27.93,96.16,15.54,1.11
241,Isangel,27,VU,1574377700,48,-19.55,169.27,28.0,6.7
242,Shu,89,KZ,1574378297,91,43.6,73.76,-5.4,0.38
243,Kabalo,76,CD,1574378297,86,-6.05,26.92,20.8,0.93
244,Chicama,20,PE,1574377713,77,-7.84,-79.15,20.0,3.6
245,Lebork,90,PL,1574378297,93,54.54,17.75,5.0,7.7
246,Kahului,40,US,1574377790,54,20.89,-156.47,29.0,8.2
247,Apollonia,75,GR,1574378297,93,40.64,23.49,16.11,2.1
248,Miles City,1,US,1574377698,59,46.41,-105.84,2.22,3.1
249,Mpongwe,84,ZM,1574378297,91,-13.51,28.16,19.48,2.11
250,Ahipara,10,NZ,1574377731,64,-35.17,173.16,26.11,9.41
251,Taoudenni,0,ML,1574377731,26,22.68,-3.98,17.58,2.2
252,Rome,20,IT,1574378189,93,41.89,12.48,11.11,1.5
253,Biak,99,ID,1574378297,75,-0.91,122.88,27.24,1.27
254,Avera,1,US,1574378297,76,33.19,-82.53,16.0,2.03
255,Sao Miguel,78,BR,1574378297,87,4.52,-61.01,22.36,1.5
256,Qasigiannguit,20,GL,1574378297,51,68.82,-51.19,-10.0,5.1
257,Te Anau,36,NZ,1574378298,80,-45.41,167.72,13.19,5.79
258,Kasempa,86,ZM,1574378298,94,-13.46,25.83,17.65,1.5
259,Leopold,90,US,1574378298,93,38.1,-86.58,13.33,6.7
260,Cap Malheureux,20,MU,1574378298,94,-19.98,57.61,24.44,1.5
261,Mogadishu,8,SO,1574378298,80,2.04,45.34,27.74,4.86
262,Neiafu,75,TO,1574378298,74,-18.65,-173.98,28.0,3.1
263,Flinders,75,AU,1574377743,52,-34.58,150.85,22.22,6.2
264,Saskylakh,100,RU,1574378298,97,71.97,114.09,-21.34,3.79
265,Phangnga,20,TH,1574378298,78,8.45,98.53,25.0,1.0
266,Sunnyside,100,CA,1574378298,97,47.86,-53.92,3.33,9.98
267,General Roca,0,AR,1574378298,16,-39.03,-67.58,27.0,1.0
268,Nizwa,50,OM,1574378005,76,22.93,57.53,16.14,1.36
269,Tuy Hoa,89,VN,1574378298,80,13.08,109.3,25.43,10.24
270,Merke,100,KZ,1574378298,92,42.87,73.19,-7.53,0.98
271,Thunder Bay,90,CA,1574378082,79,48.41,-89.26,-4.0,5.7
272,Dandong,25,CN,1574378299,77,40.12,124.37,3.82,1.27
273,Harindanga,0,IN,1574378299,88,22.04,88.32,18.0,2.13
274,Soltvadkert,96,HU,1574378299,87,46.58,19.39,9.0,2.1
275,Torbay,90,CA,1574378299,100,47.66,-52.73,3.89,11.8
276,Sweetwater,90,US,1574378299,100,32.47,-100.41,8.89,6.2
277,Kapit,68,MY,1574378299,93,2.02,112.94,24.06,0.44
278,Rovaniemi,90,FI,1574378299,100,66.5,25.72,1.0,4.6
279,East London,0,ZA,1574378299,72,-33.02,27.91,17.62,4.96
280,San Quintin,99,PH,1574377712,80,17.54,120.52,24.37,1.12
281,Ostrovnoy,67,RU,1574378299,93,68.05,39.51,-2.89,6.63
282,Mangan,22,IN,1574378299,65,27.5,88.54,6.27,2.22
283,Alyangula,40,AU,1574377727,78,-13.85,136.42,28.0,3.6
284,Grua,75,AT,1574378299,93,46.83,14.22,7.22,1.0
285,West Des Moines,90,US,1574378299,74,41.56,-93.76,2.22,7.7
286,Mehamn,75,NO,1574377728,93,71.03,27.85,3.0,9.3
287,Nelson Bay,59,AU,1574378300,33,-32.72,152.14,32.0,4.6
288,Adre,47,TD,1574378300,15,13.47,22.2,20.09,5.12
289,Sur,79,OM,1574377709,77,22.57,59.53,22.61,8.48
290,Berlevag,75,NO,1574378300,93,70.86,29.09,3.0,9.3
291,Karaton,40,ID,1574378300,88,-6.34,106.1,25.56,2.1
292,Dawei,9,MM,1574378302,72,14.07,98.19,26.09,8.65
293,Jucas,47,BR,1574378302,34,-6.53,-39.53,28.71,2.3
294,Carnarvon,0,ZA,1574378302,50,-30.97,22.13,15.55,6.38
295,Yaounde,20,CM,1574378302,94,3.87,11.52,22.0,2.1
296,Sabha,0,LY,1574378302,70,27.03,14.43,17.16,4.88
297,Taiyuan,17,CN,1574378302,86,37.86,112.56,-2.0,1.0
298,Srednekolymsk,100,RU,1574378302,97,67.46,153.71,-25.09,2.07
299,Norman Wells,75,CA,1574378302,85,65.28,-126.83,-11.0,2.6
300,Nyurba,98,RU,1574378302,97,63.29,118.35,-24.58,1.97
301,Gat,39,SN,1574377709,69,14.69,-16.54,23.0,7.2
302,Mithi,53,PK,1574378302,54,24.74,69.8,23.54,1.28
303,Bykovo,0,RU,1574378302,60,49.76,45.39,-11.06,2.62
304,Zhangye,64,CN,1574378302,35,38.94,100.46,0.61,4.25
305,Turayf,83,SA,1574378302,86,31.68,38.65,4.0,4.1
306,Mount Gambier,14,AU,1574377751,71,-37.83,140.78,14.0,4.1
307,Mlonggo,20,ID,1574378302,78,-6.53,110.7,28.89,1.0
308,Nemuro,0,JP,1574378302,56,43.32,145.57,3.56,7.01
309,Zeya,100,RU,1574377735,97,53.74,127.27,-21.15,4.24
310,Souris,90,CA,1574378303,77,46.36,-62.25,3.89,3.6
311,Port-Cartier,90,CA,1574378303,80,50.03,-66.88,-1.0,1.0
312,Meulaboh,91,ID,1574377745,78,4.14,96.13,26.62,2.81
313,Kawalu,95,ID,1574378303,87,-7.38,108.21,22.44,1.49
314,Borodyanka,35,UA,1574378303,62,50.64,29.92,-6.0,5.0
315,Barmer,27,IN,1574378303,46,25.74,71.4,23.44,3.26
316,Neftcala,100,AZ,1574378303,71,39.37,49.25,9.66,9.89
317,Bafoulabe,13,ML,1574378303,23,13.81,-10.83,27.15,3.26
318,Pangody,100,RU,1574378303,97,65.85,74.49,-14.32,3.87
319,Abu Samrah,21,SY,1574378303,40,35.3,37.18,12.52,2.04
320,Dalvik,75,SE,1574378303,93,57.79,14.13,6.11,5.1
321,Lavrentiya,82,RU,1574377727,78,65.58,-170.99,-7.44,8.47
322,Najran,40,SA,1574378303,93,17.54,44.22,13.0,1.7
323,Axim,92,GH,1574378303,89,4.87,-2.24,23.9,1.0
324,Vila Franca do Campo,75,PT,1574378304,88,37.72,-25.43,20.0,11.3
325,Hammond,1,US,1574378304,68,30.5,-90.46,21.67,3.1
326,Inhambane,50,MZ,1574378304,88,-23.87,35.38,24.99,0.86
327,Santa Maria,75,BR,1574377751,94,-16.02,-48.01,20.0,1.5
328,Mackay,20,CA,1574378304,52,53.65,-115.58,6.0,2.1
329,Kangaatsiaq,50,GL,1574378304,70,68.31,-53.46,-7.96,6.6
330,Nortelandia,97,BR,1574378304,86,-14.45,-56.8,23.14,1.44
331,Toora-Khem,87,RU,1574377739,93,52.47,96.11,-22.1,0.68
332,Ilulissat,20,GL,1574377720,56,69.22,-51.1,-9.0,1.0
333,Nueva Germania,72,PY,1574378304,35,-23.91,-56.7,30.81,2.81
334,Solomenskoye,100,RU,1574378304,93,44.22,44.35,-2.01,6.37
335,Tera,89,CY,1574378304,76,34.97,32.42,15.0,4.1
336,Sangmelima,100,CM,1574378304,99,2.93,11.98,19.78,1.43
337,Hami,25,CN,1574378304,36,42.84,93.51,-3.18,4.85
338,Alofi,100,NU,1574377726,82,-19.06,-169.92,26.48,6.61
339,Getashen,33,TR,1574378304,74,40.04,43.94,-2.0,0.5
340,Lata,100,IN,1574378304,65,30.78,78.62,-2.79,1.37
341,Pimentel,100,BR,1574378304,89,-3.7,-45.5,24.89,0.73
342,Chuy,0,UY,1574378305,93,-33.69,-53.46,20.35,4.68
343,Nakamura,75,JP,1574378305,54,35.17,136.87,13.0,3.6
344,Aklavik,90,CA,1574377710,84,68.22,-135.01,-14.0,3.6
345,Mangrol,62,IN,1574378305,54,25.33,76.51,18.49,1.53
346,Serdobsk,0,RU,1574378305,47,52.46,44.21,-8.38,1.51
347,Shubarshi,0,KZ,1574378305,84,48.59,57.19,-14.19,2.58
348,Maun,100,BW,1574378305,67,-19.99,23.42,24.59,1.68
349,Yafran,0,LY,1574378305,53,32.06,12.53,10.05,0.98
350,Pulandian,20,CN,1574378305,76,39.4,121.96,12.0,4.0
351,Arman,73,RU,1574378305,77,59.7,150.17,-5.44,2.24
352,Yeppoon,40,AU,1574378305,39,-23.13,150.74,28.0,4.1
353,Moron,42,HT,1574378305,80,18.56,-74.26,25.84,10.0
354,Brae,68,GB,1574377712,87,60.4,-1.35,8.0,4.6
355,Truth or Consequences,20,US,1574378305,70,33.13,-107.25,11.11,3.1
356,Margate,40,AU,1574378305,36,-43.03,147.26,20.56,5.1
357,Stilfontein,83,ZA,1574378305,65,-26.84,26.78,18.74,1.8
358,Hambantota,89,LK,1574378305,75,6.12,81.12,26.82,2.35
359,San Policarpo,100,PH,1574378305,81,12.18,125.51,28.01,5.29
360,Palmer,20,AU,1574378305,55,-34.85,139.16,18.33,3.6
361,Kenai,1,US,1574378306,86,60.55,-151.26,4.44,2.1
362,Azuqueca de Henares,75,ES,1574378306,93,40.57,-3.26,8.0,1.5
363,Pirovskoye,100,RU,1574378306,93,57.63,92.27,-21.57,4.02
364,Port-Gentil,20,GA,1574378306,100,-0.72,8.78,24.0,1.0
365,Adwa,100,ET,1574378306,67,14.16,38.9,19.26,1.35
366,Yumen,93,CN,1574378306,61,40.29,97.04,-4.58,4.23
367,Ibra,100,OM,1574377753,56,22.69,58.55,21.73,3.45
368,Umm Kaddadah,43,SD,1574378306,21,13.6,26.69,21.72,5.59
369,Trincomalee,100,LK,1574378306,97,8.58,81.23,22.99,1.44
370,Berndorf,49,AT,1574378306,87,47.95,16.11,10.56,6.7
371,Moose Factory,90,CA,1574377726,92,51.26,-80.61,-3.0,5.1
372,Fort Nelson,75,CA,1574377710,86,58.81,-122.69,-2.0,1.0
373,Takoradi,88,GH,1574378306,80,4.89,-1.75,27.0,2.97
374,Tungi,75,TZ,1574378306,100,-6.83,39.32,23.0,1.0
375,Rameswaram,19,IN,1574378307,74,9.28,79.3,28.37,7.01
376,Ankazoabo,73,MG,1574378307,66,-22.29,44.51,21.75,0.65
377,Arona,75,IT,1574378307,100,45.76,8.56,10.0,1.5
378,Klyuchi,100,RU,1574377719,90,52.25,79.17,-19.93,4.87
379,Villa Sandino,40,NI,1574378307,62,12.05,-84.99,31.0,3.62
380,Rio Grande,4,BR,1574378156,83,-32.03,-52.1,25.0,2.1
381,Pedernales,97,EC,1574378307,84,0.07,-80.05,23.23,2.95
382,Sylling,90,NO,1574378307,100,59.9,10.28,7.0,3.1
383,Lethem,89,GY,1574378307,58,3.38,-59.8,29.91,2.95
384,Luderitz,0,NA,1574377716,90,-26.65,15.16,14.54,7.01
385,Bathsheba,20,BB,1574378307,78,13.22,-59.52,27.0,3.1
386,Si Chiang Mai,40,LA,1574378307,100,17.96,102.58,20.0,1.0
387,Swedru,99,GH,1574378307,83,6.83,-1.6,22.82,2.28
388,Fomboni,17,KM,1574378307,82,-12.28,43.74,27.9,7.24
389,Ulaanbaatar,75,MN,1574378307,72,47.92,106.92,-12.0,7.0
390,Burnie,0,AU,1574378307,40,-41.05,145.91,20.0,1.34
391,Celestun,50,MX,1574378307,79,20.87,-90.4,25.82,10.3
392,Thinadhoo,1,MV,1574378307,78,0.53,72.93,27.45,4.8
393,Kendari,96,ID,1574378308,59,-3.99,122.52,29.72,1.72
394,Namatanai,100,PG,1574378308,77,-3.66,152.44,27.72,12.06
395,Mikkeli,100,FI,1574378308,99,61.69,27.27,2.22,1.34
396,Sambava,42,MG,1574378308,93,-14.27,50.17,22.58,0.61
397,Nikolskoye,100,RU,1574378308,86,59.7,30.79,-1.11,2.0
398,Gurupi,77,BR,1574378230,76,-11.73,-49.07,25.49,1.85
399,Zaysan,99,KZ,1574378308,87,47.47,84.87,-18.24,1.18
400,Adrar,100,DZ,1574378308,26,27.87,-0.29,16.0,4.1
401,Port Blair,1,IN,1574377648,75,11.67,92.75,27.93,6.23
402,Tura,99,RU,1574377721,97,64.27,100.22,-24.91,1.32
403,Khanewal,40,PK,1574378308,77,30.3,71.93,16.0,2.52
404,Laguna,39,BZ,1574377737,74,16.17,-88.94,27.0,2.1
405,Minudasht,77,IR,1574378308,87,37.23,55.37,9.0,2.1
406,Krasnoborsk,99,RU,1574378308,93,61.56,45.93,-3.89,3.53
407,Kiama,75,AU,1574378308,52,-34.67,150.86,23.89,6.2
408,Sinnamary,100,GF,1574377738,79,5.38,-52.96,27.79,4.35
409,Kibre Mengist,100,ET,1574378308,98,5.87,38.99,15.36,0.65
410,Guozhen,0,CN,1574378309,51,29.3,113.14,13.05,1.49
411,Vestmannaeyjar,100,IS,1574378309,88,63.44,-20.27,8.21,7.73
412,Pak Thong Chai,81,TH,1574378309,93,14.73,102.02,21.11,1.0
413,Rongcheng,46,CN,1574378309,79,37.16,122.42,13.64,4.68
414,Bosaso,98,SO,1574378309,77,11.28,49.18,27.6,12.95
415,Kushima,75,JP,1574378309,93,31.5,131.29,14.0,3.6
416,Kulachi,95,PK,1574378309,47,31.93,70.46,17.93,4.0
417,Shitanjing,100,CN,1574378309,72,39.23,106.34,2.94,2.73
418,Ryabovo,82,RU,1574378309,83,60.34,28.99,0.0,2.85
419,Shenjiamen,32,CN,1574378309,88,29.96,122.3,19.15,4.09
420,Vuktyl,100,RU,1574378309,97,63.86,57.31,0.37,4.78
421,Saint-Pierre,100,FR,1574378309,93,48.95,4.24,8.0,6.2
422,Iracoubo,100,GF,1574378310,79,5.48,-53.21,27.79,4.35
423,Naryan-Mar,100,RU,1574378310,94,67.67,53.09,-0.04,7.32
424,Los Llanos de Aridane,4,ES,1574378310,68,28.66,-17.92,20.56,2.1
425,Bud,0,NO,1574378310,63,62.91,6.91,5.0,3.1
426,Timizart,100,DZ,1574378310,59,36.8,4.25,17.02,2.58
427,Tsaratanana,73,MG,1574378310,91,-16.8,47.65,21.95,1.87
428,Morondava,41,MG,1574377710,76,-20.3,44.28,24.07,0.91
429,Hede,100,SE,1574378310,100,60.45,15.49,5.56,3.1
430,Luau,98,CD,1574378310,94,-10.7,22.23,18.49,1.27
431,Puerto Escondido,75,MX,1574377741,70,15.86,-97.07,29.0,2.6
432,Gerash,0,IR,1574378310,53,27.67,54.14,10.22,1.1
433,Mbuji-Mayi,100,CD,1574378310,95,-6.13,23.6,20.95,2.46
434,Cascais,20,PT,1574378310,93,38.7,-9.42,15.0,4.1
435,Wuzhou,0,CN,1574378310,64,23.48,111.3,14.98,0.77
436,Jinchang,68,CN,1574378310,35,38.52,102.19,-0.15,5.8
437,Turukhansk,84,RU,1574377713,94,65.8,87.96,-22.59,1.38
438,Novikovo,0,RU,1574378310,53,51.15,37.89,-8.81,4.51
439,Santa Cruz del Norte,20,CU,1574378311,64,23.15,-81.92,23.0,3.1
440,Usolye,99,RU,1574378311,75,59.42,56.68,-11.11,0.45
441,Popondetta,67,PG,1574378311,63,-8.77,148.24,25.24,2.37
442,Tabou,61,CI,1574378311,94,4.42,-7.36,24.55,0.97
443,Faya,7,SA,1574377724,93,18.39,42.45,12.0,1.31
444,Muros,75,ES,1574378311,100,42.77,-9.06,14.44,3.1
445,Zhirnovsk,0,RU,1574378311,62,50.98,44.78,-10.61,2.16
446,Sjovegan,14,NO,1574378311,100,68.87,17.85,2.22,2.6
447,Tuatapere,69,NZ,1574378311,45,-46.13,167.69,21.86,4.18
448,Baturaja,87,ID,1574378311,91,-4.12,104.17,24.25,0.73
449,Brookhaven,1,US,1574378311,61,40.78,-72.92,9.44,1.5
450,Gustavo Diaz Ordaz,75,MX,1574378311,31,24.01,-104.69,23.0,6.7
451,Zyryanka,91,RU,1574377732,97,65.73,150.89,-24.89,1.48
452,Tonstad,90,NO,1574378311,93,58.66,6.71,8.33,1.0
453,Monschau,64,DE,1574378311,81,50.55,6.24,6.11,3.6
454,Skalica,68,CZ,1574378311,81,48.85,17.23,11.11,6.7
455,Farafangana,100,MG,1574378311,87,-22.82,47.83,26.58,8.73
456,Perehonivka,71,UA,1574378311,73,49.98,30.49,-6.11,6.0
457,Akhmim,34,EG,1574378311,36,26.56,31.74,16.0,3.6
458,Upata,67,VE,1574378312,91,8.02,-62.41,22.65,2.21
459,Khammam,0,IN,1574378312,91,17.25,80.15,19.65,0.97
460,Statesboro,1,US,1574378107,87,32.45,-81.78,17.0,1.57
461,Inuvik,90,CA,1574378312,84,68.36,-133.71,-14.0,2.6
462,Eyl,5,SO,1574378312,79,7.98,49.82,27.36,6.96
463,Quelimane,82,MZ,1574378312,89,-17.88,36.89,26.79,3.69
464,Anadyr,20,RU,1574378312,76,64.73,177.51,-20.56,7.0
465,Arkhara,100,RU,1574378312,94,49.42,130.09,-9.25,5.71
466,Boden,100,SE,1574378312,100,65.83,21.69,1.0,2.1
467,Coquimbo,93,CL,1574377745,63,-29.95,-71.34,19.0,2.6
468,Kattivakkam,75,IN,1574378312,94,13.22,80.32,27.22,8.22
469,Ilinskiy,0,RU,1574378312,92,55.62,38.12,-7.22,2.0
470,Saint-Michel-des-Saints,100,CA,1574378312,9,46.68,-73.92,-1.11,3.58
471,Belaya Gora,82,RU,1574378312,94,68.54,146.19,-31.13,1.95
472,Lavumisa,52,ZA,1574378312,96,-27.31,31.88,20.6,0.43
473,Sokoto,100,NG,1574378312,20,13.06,5.24,27.54,2.66
474,Zhangjiakou,0,CN,1574377728,71,40.77,114.88,-3.4,1.5
475,Rawson,0,AR,1574378312,65,-43.3,-65.11,12.28,4.65
476,Lazaro Cardenas,5,MX,1574377739,18,28.39,-105.62,23.0,8.7
477,Constitucion,75,MX,1574378312,31,23.99,-104.67,23.0,6.7
478,Ballina,100,IE,1574378313,87,54.11,-9.15,6.67,4.47
479,Byron Bay,4,AU,1574378313,61,-28.65,153.62,26.67,6.7
480,San Juan,17,AR,1574378313,48,-31.54,-68.53,27.21,16.14
481,Venado Tuerto,0,AR,1574378313,62,-33.75,-61.97,26.67,1.34
482,Pisco,90,PE,1574377722,30,-13.71,-76.2,22.0,3.1
483,Balkanabat,5,TM,1574378313,38,39.51,54.36,-1.94,2.47
484,Nuevo Ideal,100,MX,1574378313,63,24.89,-105.07,15.15,4.25
485,Uglegorsk,0,RU,1574378313,56,49.08,142.06,-3.34,6.45
486,Muriti,40,TZ,1574378313,88,-1.99,32.93,22.0,2.6
487,Dickinson,1,US,1574378268,58,46.88,-102.79,0.0,2.6
488,Dingle,57,PH,1574378313,82,11.0,122.67,27.02,3.65
489,Hobyo,1,SO,1574378313,81,5.35,48.53,26.49,2.83
490,Yerbogachen,96,RU,1574378313,95,61.28,108.01,-28.83,3.03
491,Grindavik,75,IS,1574377716,93,63.84,-22.43,6.0,4.6
492,Skibbereen,75,IE,1574378313,100,51.55,-9.27,6.0,5.1
493,Xining,35,CN,1574377736,43,36.62,101.77,-2.13,2.06
494,Gigmoto,100,PH,1574378313,76,13.78,124.39,28.91,4.08
495,Lakes Entrance,73,AU,1574378313,62,-37.88,147.99,18.33,0.45
496,Wenling,83,CN,1574378314,94,28.38,121.38,14.44,4.18
497,Eisenberg,87,DE,1574378314,100,50.97,11.9,7.78,1.0
498,Lasa,89,CY,1574378314,76,34.92,32.53,15.0,4.1
499,Nibbar,40,TN,1574378314,81,36.29,8.77,9.0,1.0
500,Xianyang,0,CN,1574378314,92,34.31,108.72,6.67,3.71
501,Basco,90,US,1574378314,86,40.33,-91.2,7.0,5.7
502,Gisborne,36,NZ,1574378314,50,-38.66,178.02,21.67,3.58
503,Concepcion del Uruguay,64,AR,1574378314,77,-32.48,-58.24,26.11,2.24
504,Abha,3,SA,1574378314,93,18.22,42.5,12.0,0.22
505,Ruwi,75,OM,1574378314,78,23.6,58.55,23.0,3.1
506,Santa Rosa,65,AR,1574378300,47,-36.62,-64.29,25.62,4.19
507,Jaguarari,87,BR,1574378314,43,-10.26,-40.2,24.6,4.09
508,Vestmanna,100,FO,1574378314,93,62.16,-7.17,7.0,7.7
509,Moquegua,85,PE,1574378314,73,-17.19,-70.93,12.68,1.21
510,Ippy,96,CF,1574378315,40,6.26,21.2,21.88,1.37
511,Severnoye,9,RU,1574378315,82,54.09,52.54,-12.0,2.73
512,hovsan,90,AZ,1574378315,87,40.37,50.09,6.0,2.1
513,Muromtsevo,100,RU,1574378315,96,56.37,75.24,-16.72,3.19
514,Ranong,20,TH,1574378315,74,9.96,98.62,27.0,2.6
515,Urusha,100,RU,1574378315,95,54.05,122.9,-21.98,3.08
516,Lundamo,99,NO,1574378315,65,63.15,10.29,7.0,6.2
517,Berdigestyakh,43,RU,1574378315,97,62.1,126.7,-27.58,1.93
518,Leticia,40,CO,1574378315,88,-4.21,-69.94,29.0,1.19
519,Lompoc,1,US,1574378315,72,34.64,-120.46,19.0,3.6
520,Pangnirtung,90,CA,1574377741,73,66.15,-65.72,-6.0,5.95
521,Eirunepe,91,BR,1574378315,92,-6.66,-69.87,23.96,1.2
522,Smithers,90,CA,1574378315,91,54.78,-127.17,0.0,1.0
523,Marsa Matruh,76,EG,1574378315,77,31.35,27.25,15.0,4.23
524,Havre-Saint-Pierre,90,CA,1574378316,80,50.23,-63.6,0.0,2.6
525,Sibu,75,MY,1574378316,94,2.29,111.83,24.0,1.5
526,Aksu,90,KZ,1574378316,70,52.04,76.93,-18.0,5.0
527,Severo-Kurilsk,69,RU,1574377722,85,50.68,156.12,-3.68,9.2
528,Natal,20,BR,1574378316,78,-5.81,-35.21,26.0,3.6
529,Olbernhau,75,CZ,1574378316,100,50.66,13.35,8.89,2.1
530,Lamar,90,US,1574378316,86,38.09,-102.62,1.0,1.5
531,Pau Brasil,73,BR,1574378316,97,-15.46,-39.65,20.56,0.59
532,Tokmak,66,UA,1574378316,30,47.26,35.7,-6.77,8.38
533,Manutuke,36,NZ,1574378316,50,-38.68,177.91,21.67,3.58
534,Dabat,56,ET,1574378316,67,12.98,37.77,14.19,2.41
535,Wasilla,75,US,1574378030,52,61.58,-149.44,9.0,7.2
536,Minab,7,IR,1574378316,42,27.15,57.07,19.0,5.1
537,Honiara,75,SB,1574378316,88,-9.43,159.96,28.0,1.0
538,Banloc,81,RO,1574378316,58,45.39,21.13,12.22,10.3
539,Tamiahua,4,MX,1574378316,83,21.28,-97.45,23.92,7.62
540,Alexandria,100,RO,1574378170,97,43.97,25.33,9.44,6.26
541,Monchegorsk,100,RU,1574378316,93,67.94,32.93,-0.26,2.72
542,Lingao,47,CN,1574378317,80,19.91,109.69,21.01,2.77
543,Nuuk,20,GL,1574378317,72,64.17,-51.74,-8.0,3.6
544,Jefferson City,90,US,1574378043,75,38.58,-92.17,9.44,4.6
545,Port Lincoln,20,AU,1574377750,42,-34.72,135.86,17.63,1.08
546,Acapulco,75,MX,1574378317,79,16.86,-99.88,29.0,3.1
547,Macae,40,BR,1574378317,83,-22.37,-41.79,24.0,4.6
548,Oranjemund,29,ZA,1574378317,88,-28.55,16.43,14.53,3.4
549,Kavaratti,6,IN,1574378317,70,10.57,72.64,28.04,0.85
550,Zhigansk,100,RU,1574378317,96,66.77,123.37,-28.59,3.99
551,Lerwick,69,GB,1574378317,70,60.15,-1.15,8.0,8.2
552,Cap-aux-Meules,90,CA,1574378317,80,47.38,-61.86,2.0,7.7
553,Nuevo Progreso,75,US,1574378317,65,26.05,-97.95,27.22,8.2
554,Haysville,90,US,1574378317,58,37.56,-97.35,6.0,9.3
555,Svetlogorsk,75,RU,1574378317,57,53.14,59.15,-8.0,6.0
556,Samarai,72,PG,1574377738,64,-10.62,150.67,27.08,3.78
557,Yaring,95,TH,1574378317,72,6.87,101.37,28.62,8.33
558,Nizhneangarsk,100,RU,1574378317,87,55.78,109.57,-26.23,4.3
559,Chandler,75,US,1574378151,55,33.31,-111.84,17.78,4.71
560,Labuhan,90,ID,1574377751,79,-2.54,115.51,25.78,0.26
561,Nioro,48,GM,1574378318,23,13.79,-15.05,27.85,4.17
562,San Ignacio,63,PE,1574378318,87,-5.15,-79.0,18.9,0.44
563,Tevriz,95,RU,1574378318,96,57.51,72.4,-16.37,2.56
564,Mugur-Aksy,100,RU,1574378318,69,50.38,90.44,-26.29,2.27
565,Naze,75,NG,1574377742,94,5.43,7.07,26.0,3.95
566,Choix,37,MX,1574378318,57,26.71,-108.33,23.73,3.46
567,Maues,83,BR,1574378318,90,-3.38,-57.72,24.93,1.57
568,Fairbanks,90,US,1574378273,84,64.84,-147.72,-2.22,2.5
569,Kimberley,44,ZA,1574378318,21,-28.74,24.76,23.48,2.45
570,Haines Junction,100,CA,1574378318,97,60.75,-137.51,-4.17,5.29
571,Russell,90,US,1574377729,64,38.9,-98.86,3.0,8.2
572,Bahar,0,IR,1574378318,92,34.91,48.44,-4.0,1.0
573,Coahuayana,90,MX,1574378318,70,18.62,-100.35,25.32,0.15
574,Liberal,40,US,1574378318,60,37.04,-100.92,6.0,5.7
575,Surt,0,LY,1574378318,72,31.21,16.59,15.03,1.45
576,Escuintla,5,GT,1574378319,66,14.29,-90.78,30.0,0.11
577,Pacasmayo,9,PE,1574378319,83,-7.4,-79.57,18.57,5.76
